,City,Lat,Lng,Max Temp,Humidity,Cloudiness,Wind Speed,Country,Date
0,manggar,-2.8833,108.2667,24.88,86,99,1.8,ID,1676232355
1,castro,-24.7911,-50.0119,22.57,85,63,0.22,BR,1676232356
2,hobart,-42.8794,147.3294,11.7,74,75,3.6,AU,1676232303
3,asfi,32.2994,-9.2372,17.46,59,100,6.7,MA,1676232158
4,rikitea,-23.1203,-134.9692,25.75,68,47,1.32,PF,1676232358
5,dwarka,22.2394,68.9678,22.45,49,0,5.5,IN,1676232359
6,carnarvon,-24.8667,113.6333,25.38,66,0,9.67,AU,1676232360
7,peno,56.9262,32.7426,-4.73,94,100,3.51,RU,1676232361
8,kjopsvik,68.097,16.3742,2.93,83,100,16.25,NO,1676232363
9,new norfolk,-42.7826,147.0587,11.51,66,2,1.28,AU,1676232365
10,bluff,-46.6,168.3333,13.92,89,88,2.81,NZ,1676232366
11,san cristobal,7.7669,-72.225,26.1,50,43,2.19,VE,1676232367
12,port alfred,-33.5906,26.891,22.88,95,93,1.34,ZA,1676232368
13,revelstoke,50.9832,-118.2023,1.01,93,100,4.63,CA,1676232369
14,tuktoyaktuk,69.4541,-133.0374,-37.0,67,40,1.03,CA,1676232370
15,butaritari,3.0707,172.7902,26.23,84,91,5.52,KI,1676232371
16,goundi,9.3627,17.366,30.13,13,23,1.8,TD,1676232372
17,chuy,-33.6971,-53.4616,31.27,42,0,6.87,UY,1676232373
18,ushuaia,-54.8,-68.3,11.79,58,75,7.2,AR,1676232122
19,port blair,11.6667,92.75,24.02,83,81,0.51,IN,1676232375
20,kapaa,22.0752,-159.319,25.18,76,75,9.77,US,1676232375
21,tasiilaq,65.6145,-37.6368,-5.91,71,100,4.48,GL,1676232377
22,bilibino,68.0546,166.4372,-35.1,99,79,1.88,RU,1676232380
23,saldanha,-33.0117,17.9442,18.22,92,0,6.17,ZA,1676232381
24,mataura,-46.1927,168.8643,14.03,87,49,0.47,NZ,1676232230
25,puerto carreno,6.189,-67.4859,34.99,41,20,5.66,CO,1676232382
26,port hedland,-20.3167,118.5667,30.03,89,38,3.6,AU,1676232383
27,souillac,-20.5167,57.5167,26.21,69,40,4.12,MU,1676232385
28,laguna de perlas,12.3429,-83.6712,28.05,76,4,7.26,NI,1676232386
29,ende,-8.8432,121.6623,25.23,86,100,2.29,ID,1676232388
30,atuona,-9.8,-139.0333,26.05,75,2,7.85,PF,1676232390
31,cape town,-33.9258,18.4232,21.73,83,20,7.2,ZA,1676232393
32,anadyr,64.75,177.4833,-33.72,75,20,4.0,RU,1676232394
33,elko,41.0002,-115.5012,1.01,62,3,2.68,US,1676232396
34,kalamazoo,42.2506,-85.55,12.03,22,0,6.17,US,1676232232
35,umarkot,25.3616,69.7362,17.65,11,0,4.92,PK,1676232393
36,toktogul,41.8708,72.9402,-10.17,67,12,1.28,KG,1676232400
37,saint-philippe,-21.3585,55.7679,24.77,82,100,5.33,RE,1676232401
38,hambantota,6.1241,81.1185,22.71,85,71,4.99,LK,1676232374
39,georgetown,5.4112,100.3354,26.96,99,40,2.57,MY,1676232103
40,punta arenas,-53.15,-70.9167,12.06,50,40,9.77,CL,1676232179
41,bahia blanca,-38.7196,-62.2724,24.29,69,75,2.57,AR,1676232405
42,jamestown,42.097,-79.2353,9.8,18,0,2.06,US,1676232258
43,busselton,-33.65,115.3333,14.26,80,0,4.61,AU,1676232407
44,revda,56.801,59.9303,-8.48,87,100,3.97,RU,1676232408
45,ostrovnoy,68.0531,39.5131,-4.26,90,100,12.61,RU,1676232409
46,cairns,-16.9167,145.7667,25.04,90,93,1.54,AU,1676232223
47,goderich,43.7501,-81.7165,2.73,66,0,4.03,CA,1676232411
48,thompson,55.7435,-97.8558,-10.91,85,100,3.6,CA,1676232412
49,gavrilov-yam,57.3018,39.8533,-8.09,100,85,1.87,RU,1676232413
50,caravelas,-17.7125,-39.2481,27.91,71,14,3.71,BR,1676232414
51,lompoc,34.6391,-120.4579,17.69,56,100,6.17,US,1676232415
52,mar del plata,-38.0023,-57.5575,25.01,83,75,3.09,AR,1676232416
53,lakatoro,-16.0999,167.4164,26.91,86,100,7.39,VU,1676232417
54,rocha,-34.4833,-54.3333,37.86,20,2,7.66,UY,1676232419
55,korla,41.7597,86.1469,-0.9,71,12,1.29,CN,1676232420
56,neiva,2.9273,-75.2819,34.94,36,40,2.06,CO,1676232173
57,andenes,69.3143,16.1194,2.99,70,100,16.46,NO,1676232148
58,katsuura,35.1333,140.3,12.01,93,100,5.37,JP,1676232426
59,jiaohe,43.7286,127.3447,-18.4,100,89,1.04,CN,1676232427
60,severobaykalsk,55.65,109.3167,-19.39,90,41,2.63,RU,1676232428
61,klaksvik,62.2266,-6.589,8.51,84,100,11.98,FO,1676232430
62,luganville,-15.5333,167.1667,26.48,82,100,1.22,VU,1676232431
63,huilong,31.8111,121.655,6.63,94,100,7.14,CN,1676232432
64,jijiga,9.35,42.8,17.1,51,0,2.48,ET,1676232433
65,nanortalik,60.1432,-45.2371,-8.31,65,100,5.31,GL,1676232436
66,irbil,36.1926,44.0106,1.9,69,0,0.0,IQ,1676232337
67,naze,28.3667,129.4833,20.0,85,31,8.42,JP,1676232441
68,kautokeino,69.0125,23.0412,-1.65,73,88,13.78,NO,1676232442
69,noumea,-22.2763,166.4572,26.67,99,70,5.11,NC,1676232023
70,sohag,26.557,31.6948,13.07,39,88,4.89,EG,1676232446
71,wassenberg,51.1,6.15,8.47,84,20,1.54,DE,1676232448
72,east london,-33.0153,27.9116,23.84,85,13,5.52,ZA,1676232242
73,pevek,69.7008,170.3133,-30.13,94,100,0.9,RU,1676232452
74,emerald,-23.5333,148.1667,24.76,37,0,3.44,AU,1676232453
75,barrow,71.2906,-156.7887,-27.99,76,0,5.66,US,1676232431
76,clyde river,70.4692,-68.5914,-31.52,98,95,1.4,CA,1676232455
77,bredasdorp,-34.5322,20.0403,23.83,61,81,2.77,ZA,1676232456
78,caucaia,-3.7361,-38.6531,28.97,74,0,4.12,BR,1676232457
79,cidreira,-30.1811,-50.2056,26.58,70,0,5.76,BR,1676232458
80,yellowknife,62.456,-114.3525,-18.58,84,11,0.89,CA,1676232459
81,ntungamo,-0.8833,29.65,24.13,47,90,1.9,UG,1676232460
82,sitka,57.0531,-135.33,5.94,81,100,5.66,US,1676232461
83,dikson,73.5069,80.5464,-11.06,92,100,9.19,RU,1676232463
84,yarim,14.298,44.3779,10.83,20,0,2.4,YE,1676232463
85,bundaberg,-24.85,152.35,25.68,94,7,1.34,AU,1676232464
86,ushtobe,45.2514,77.9838,-12.25,92,9,3.35,KZ,1676232465
87,hofn,64.2539,-15.2082,2.52,94,100,4.41,IS,1676232467
88,ancud,-41.8697,-73.8203,15.24,57,100,4.28,CL,1676232468
89,nisia floresta,-6.0911,-35.2086,29.45,67,99,5.49,BR,1676232292
90,kazerun,29.6195,51.6541,13.91,71,100,0.8,IR,1676232469
91,kruisfontein,-34.0033,24.7314,22.16,84,78,3.13,ZA,1676232470
92,bambous virieux,-20.3428,57.7575,24.56,70,13,7.04,MU,1676232472
93,victoria,22.2855,114.1577,22.03,94,51,4.47,HK,1676232473
94,khorixas,-20.3667,14.9667,24.16,46,3,6.82,NA,1676232473
95,hithadhoo,-0.6,73.0833,27.02,67,2,4.92,MV,1676232474
96,kodiak,57.79,-152.4072,-6.27,63,100,8.75,US,1676232475
97,kalang,5.9197,121.3631,25.25,83,73,1.81,PH,1676232476
98,padang,-0.9492,100.3543,24.03,89,100,1.49,ID,1676232477
99,gweru,-19.45,29.8167,19.56,76,100,2.41,ZW,1676232478
100,koutsouras,35.0339,25.9469,10.06,53,13,4.51,GR,1676232478
101,saint-joseph,-21.3667,55.6167,24.21,80,100,5.01,RE,1676232479
102,port lincoln,-34.7333,135.8667,14.48,75,13,4.8,AU,1676232480
103,bengkulu,-3.8004,102.2655,24.13,82,99,2.81,ID,1676232481
104,ribeira grande,38.5167,-28.7,15.43,67,75,8.49,PT,1676232482
105,avarua,-21.2078,-159.775,28.03,78,20,3.6,CK,1676232474
106,almas,46.2833,22.2333,-2.21,97,32,1.05,RO,1676232484
107,lagunillas,10.1301,-71.2595,29.81,58,21,3.63,VE,1676232485
108,half moon bay,37.4636,-122.4286,18.39,66,0,5.14,US,1676232417
109,la ronge,55.1001,-105.2842,-0.46,86,91,4.96,CA,1676232488
110,esperance,-33.8667,121.9,14.99,80,0,4.48,AU,1676232490
111,torbay,47.6666,-52.7314,-4.12,73,78,4.02,CA,1676232491
112,vardo,70.3705,31.1107,-1.01,86,75,8.23,NO,1676232492
113,albany,42.6001,-73.9662,8.46,41,99,1.32,US,1676232357
114,algiers,36.7525,3.042,9.9,76,20,1.54,DZ,1676232494
115,pokhara,28.2333,83.9833,11.25,38,0,3.13,NP,1676232495
116,khatanga,71.9667,102.5,-16.06,97,100,2.65,RU,1676232497
117,mundu,8.5667,16.0833,29.03,13,17,2.2,TD,1676232498
118,vaini,-21.2,-175.2,26.27,87,100,7.1,TO,1676232499
119,zelenogorsk,56.1147,94.5861,-22.9,97,86,0.68,RU,1676232500
120,pisco,-13.7,-76.2167,27.03,69,75,3.09,PE,1676232501
121,okhotsk,59.3833,143.3,-23.62,87,100,5.53,RU,1676232503
122,ajijic,20.3,-103.2833,26.08,39,4,0.49,MX,1676232505
123,severo-kurilsk,50.6789,156.125,-7.98,64,98,2.13,RU,1676232506
124,port elizabeth,-33.918,25.5701,23.39,88,40,6.17,ZA,1676232507
125,lander,42.833,-108.7307,7.33,63,0,1.54,US,1676232508
126,los llanos de aridane,28.6585,-17.9182,14.86,74,20,3.09,ES,1676232421
127,conakry,9.538,-13.6773,26.43,69,0,4.98,GN,1676232509
128,palmer,42.1584,-72.3287,9.58,30,75,0.0,US,1676232511
129,vila velha,-20.3297,-40.2925,28.97,77,20,7.2,BR,1676232513
130,ilulissat,69.2167,-51.1,-23.99,53,0,1.03,GL,1676232453
131,labuhan,-6.8844,112.2051,23.24,93,100,3.55,ID,1676232515
132,hermanus,-34.4187,19.2345,20.45,74,68,2.73,ZA,1676232516
133,mahibadhoo,3.7833,72.9667,26.58,67,12,5.2,MV,1676232519
134,arman,59.7,150.1667,-18.13,94,100,3.08,RU,1676232520
135,bethel,41.3712,-73.414,9.12,42,0,3.6,US,1676232521
136,luanda,-8.8368,13.2343,27.0,79,20,4.63,AO,1676232368
137,hervey bay,-25.2986,152.8535,25.47,86,4,6.42,AU,1676232523
138,micheweni,-4.9667,39.8333,26.85,75,99,7.2,TZ,1676232524
139,jacqueville,5.2052,-4.4146,27.35,85,17,6.21,CI,1676232525
140,pokrovka,42.3414,78.0056,-9.07,53,1,5.02,KG,1676232526
141,adre,13.4667,22.2,23.26,16,4,6.95,TD,1676232527
142,saskylakh,71.9167,114.0833,-38.83,98,49,4.13,RU,1676232497
143,brigantine,39.4101,-74.3646,6.11,85,100,5.14,US,1676232529
144,atbasar,51.8,68.3333,-22.16,100,100,2.78,KZ,1676232530
145,saint-augustin,51.226,-58.6502,-9.52,92,96,3.87,CA,1676232449
146,karasburg,-28.0167,18.75,24.87,35,0,7.13,NA,1676232532
147,tuatapere,-46.1333,167.6833,14.67,81,63,0.57,NZ,1676232448
148,saint-raphael,19.4333,-72.2,25.65,40,3,3.01,HT,1676232533
149,hohhot,40.8106,111.6522,-10.72,60,71,3.4,CN,1676232534
150,qaqortoq,60.7167,-46.0333,-13.75,71,100,1.66,GL,1676232535
151,lamu,-2.2717,40.902,26.12,79,5,7.47,KE,1676232536
152,mount isa,-20.7333,139.5,25.87,57,8,8.23,AU,1676232537
153,bonthe,7.5264,-12.505,25.87,79,0,4.01,SL,1676232538
154,provideniya,64.3833,-173.3,-28.52,92,91,3.04,RU,1676232531
155,kazachinskoye,57.6953,93.2761,-29.32,100,97,0.6,RU,1676232539
156,husavik,66.0449,-17.3389,1.01,75,100,4.1,IS,1676232528
157,ketchikan,55.3422,-131.6461,7.26,87,100,2.57,US,1676232540
158,batouri,4.4333,14.3667,26.43,18,72,0.5,CM,1676232542
159,grindavik,63.8424,-22.4338,8.97,100,75,15.95,IS,1676232543
160,milkovo,54.7167,158.6167,-27.56,98,41,0.77,RU,1676232544
161,illapel,-31.6308,-71.1653,28.0,32,0,4.23,CL,1676232544
162,konza,-1.7426,37.1294,17.21,48,42,5.96,KE,1676232545
163,santa vitoria do palmar,-33.5189,-53.3681,31.17,41,0,6.19,BR,1676232547
164,narsaq,60.9167,-46.05,-16.88,70,100,1.2,GL,1676232496
165,hengshui,37.7322,115.7011,-0.95,95,78,2.85,CN,1676232513
166,bilma,18.6853,12.9164,22.02,21,1,6.65,NE,1676232550
167,paducah,37.0834,-88.6001,13.07,24,0,2.06,US,1676232381
168,cockburn town,21.4612,-71.1419,25.14,75,0,7.71,TC,1676232552
169,qaanaaq,77.484,-69.3632,-32.93,94,56,2.31,GL,1676232553
170,batsfjord,70.6345,29.7185,1.96,93,20,11.83,NO,1676232554
171,kudahuvadhoo,2.6708,72.8944,26.6,68,0,5.26,MV,1676232555
172,naryan-mar,67.6713,53.087,-10.14,93,88,6.22,RU,1676232556
173,santa isabel,-23.3156,-46.2214,23.84,96,100,2.31,BR,1676232557
174,urucara,-2.5364,-57.76,29.65,69,61,1.13,BR,1676232558
175,smithers,54.7804,-127.1743,3.18,93,100,3.6,CA,1676232314
176,chokurdakh,70.6333,147.9167,-34.84,96,100,0.89,RU,1676232561
177,chicama,-7.8447,-79.1469,26.3,67,100,3.36,PE,1676232562
178,hanko,59.8333,22.95,1.66,93,100,10.28,FI,1676232564
179,kamenka,51.3223,42.7678,-7.36,97,99,3.04,RU,1676232564
180,erenhot,43.6475,111.9767,-10.81,51,0,2.78,CN,1676232565
181,egvekinot,66.3167,-179.1667,-25.64,86,100,4.2,RU,1676232566
182,omsukchan,62.5333,155.8,-32.1,100,100,1.5,RU,1676232567
183,mattru,7.6244,-11.8332,26.56,69,0,2.79,SL,1676232569
184,inhambane,-23.865,35.3833,26.13,89,95,5.59,MZ,1676232571
185,talnakh,69.4865,88.3972,-12.8,92,100,6.96,RU,1676232572
186,montanha,-18.1269,-40.3633,26.88,71,100,4.82,BR,1676232573
187,terrace bay,48.7834,-87.1,-0.38,95,99,1.0,CA,1676232576
188,winslow,35.0242,-110.6974,9.1,34,0,2.06,US,1676232577
189,san quintin,30.4833,-115.95,13.44,63,99,4.31,MX,1676232578
190,hobyo,5.3505,48.5268,24.7,74,29,8.12,SO,1676232579
191,upernavik,72.7868,-56.1549,-25.6,93,100,2.91,GL,1676232482
192,auki,-8.7676,160.7034,25.74,87,100,2.38,SB,1676232584
193,cap malheureux,-19.9842,57.6142,24.7,69,10,0.89,MU,1676232585
194,yumen,40.2833,97.2,-4.59,45,100,2.5,CN,1676232586
195,laguna,38.421,-121.4238,20.05,48,0,5.14,US,1676232587
196,margate,51.3813,1.3862,7.17,76,0,1.34,GB,1676232548
197,makhachkala,42.9764,47.5024,-2.01,88,19,1.81,RU,1676232588
198,hilo,19.7297,-155.09,20.53,94,100,4.63,US,1676232359
199,airai,-8.9266,125.4092,15.13,95,99,1.3,TL,1676232590
200,pingliang,35.5392,106.6861,-1.65,94,100,5.81,CN,1676232591
201,havelock,34.8791,-76.9013,17.0,74,40,6.69,US,1676232592
202,savannah bight,16.45,-85.85,26.01,67,9,3.83,HN,1676232593
203,fort nelson,58.8053,-122.7002,-3.36,72,100,0.45,CA,1676232594
204,faya,18.3851,42.4509,14.29,41,0,1.58,SA,1676232594
205,fortuna,40.5982,-124.1573,13.29,75,0,0.45,US,1676232595
206,richards bay,-28.783,32.0377,25.85,85,100,5.81,ZA,1676232596
207,arraial do cabo,-22.9661,-42.0278,26.92,83,75,3.09,BR,1676232598
208,tiksi,71.6872,128.8694,-41.54,100,71,1.51,RU,1676232599
209,norsup,-16.0667,167.3833,26.95,86,100,7.45,VU,1676232600
210,sal rei,16.1833,-22.9167,20.78,73,100,6.3,CV,1676232601
211,lavrentiya,65.5833,-171.0,-27.46,90,100,2.68,RU,1676232602
212,devonport,-41.1667,146.35,11.12,73,1,2.49,AU,1676232604
213,sao joao da barra,-21.6403,-41.0511,27.05,88,100,5.51,BR,1676232351
214,evensk,61.95,159.2333,-25.05,91,72,3.55,RU,1676232533
215,alcaniz,41.05,-0.1333,5.23,70,0,1.19,ES,1676232607
216,puerto ayora,-0.7393,-90.3518,30.98,84,95,3.13,EC,1676232608
217,sulina,45.1559,29.6536,0.56,66,5,7.04,RO,1676232609
218,corinto,37.9407,22.9573,9.38,65,50,5.56,GR,1676232611
219,chingirlau,51.095,54.0814,-9.46,89,100,4.95,KZ,1676232612
220,constitucion,-35.3333,-72.4167,19.42,69,18,6.91,CL,1676232613
221,baiyin,36.5583,104.2081,-6.68,88,100,4.48,CN,1676232614
222,mount gambier,-37.8333,140.7667,13.57,65,99,2.7,AU,1676232616
223,nemuro,43.3236,145.575,-3.57,84,97,5.64,JP,1676232595
224,bowen,-20.0167,148.2333,25.43,75,6,2.5,AU,1676232618
225,beloha,-25.1667,45.05,24.07,87,92,5.15,MG,1676232621
226,gikongoro,-2.464,29.5739,15.85,79,100,1.47,RW,1676232622
227,guerrero negro,27.9769,-114.0611,14.65,61,98,3.93,MX,1676232623
228,severomuysk,56.1481,113.4267,-24.02,97,81,3.05,RU,1676232625
229,chifeng,42.2683,118.9636,-8.67,49,0,3.01,CN,1676232626
230,ginda,30.6945,78.4932,2.63,31,0,2.57,IN,1676232627
231,tupik,54.4253,119.9327,-27.16,95,9,1.16,RU,1676232628
232,edzell,56.8095,-2.6549,7.7,90,3,2.51,GB,1676232629
233,yaan,7.3833,8.5667,31.42,10,36,1.76,NG,1676232633
234,tiarei,-17.5333,-149.3333,30.01,78,32,4.72,PF,1676232634
235,condega,13.365,-86.3985,30.39,35,2,7.62,NI,1676232635
236,abnub,27.2696,31.1511,12.2,41,54,3.99,EG,1676232636
237,tiznit,29.5833,-9.5,15.96,31,100,4.05,MA,1676232637
238,vizinga,61.0749,50.1031,-9.27,98,99,1.07,RU,1676232638
239,mayo,38.8876,-76.5119,5.11,86,100,4.12,US,1676232486
240,quatre cocos,-20.2078,57.7625,24.49,71,12,7.2,MU,1676232639
241,montepuez,-13.1256,38.9997,20.58,97,100,2.2,MZ,1676232640
242,faanui,-16.4833,-151.75,27.64,75,83,5.1,PF,1676232641
243,ajdabiya,30.7554,20.2263,12.19,58,8,4.12,LY,1676232642
244,iqaluit,63.7506,-68.5145,-30.73,67,92,3.58,CA,1676232643
245,geraldton,-28.7667,114.6,18.23,82,0,2.06,AU,1676232643
246,labrea,-7.2586,-64.7981,29.08,78,36,0.78,BR,1676232644
247,vao,-22.6667,167.4833,24.63,63,26,8.59,NC,1676232645
248,iranshahr,27.2025,60.6848,19.66,26,88,1.45,IR,1676232646
249,mahebourg,-20.4081,57.7,24.58,71,14,6.85,MU,1676232455
250,iroquois falls,48.7669,-80.6831,-3.1,90,100,1.69,CA,1676232648
251,yerbogachen,61.2767,108.0108,-19.31,99,62,2.41,RU,1676232649
252,bondoukou,8.0333,-2.8,30.89,26,19,1.92,CI,1676232650
253,staroaleyskoye,51.0061,82.0,-18.67,93,36,2.76,RU,1676232651
254,puerto escondido,15.85,-97.0667,28.46,65,20,2.06,MX,1676232383
255,nikolskoye,59.7035,30.7861,1.0,95,100,5.4,RU,1676232559
256,aasiaat,68.7098,-52.8699,-35.28,100,74,1.97,GL,1676232654
257,powell,40.1578,-83.0752,13.0,26,0,2.57,US,1676232478
258,touros,-5.1989,-35.4608,28.26,70,100,6.45,BR,1676232655
259,storsteinnes,69.2408,19.2344,1.36,95,100,15.6,NO,1676232656
260,arlit,18.7369,7.3853,23.77,20,1,4.56,NE,1676232657
261,pundaguitan,6.3711,126.1689,26.42,80,100,3.82,PH,1676232658
262,humboldt,40.6665,-123.9178,8.4,37,7,1.9,US,1676232658
263,ewa beach,21.3156,-158.0072,25.97,63,0,9.77,US,1676232659
264,ponta do sol,32.6667,-17.1,17.35,77,78,2.57,PT,1676232660
265,lagoa,39.05,-27.9833,14.21,70,100,10.79,PT,1676232662
266,kirakira,-10.4544,161.9205,27.24,83,87,2.96,SB,1676232663
267,askarovo,53.3372,58.5089,-17.47,85,40,2.0,RU,1676232664
268,bathsheba,13.2167,-59.5167,28.34,47,20,10.8,BB,1676232588
269,tilichiki,60.4667,166.1,-20.1,93,100,4.24,RU,1676232666
270,calama,-22.4667,-68.9333,24.27,23,20,11.32,CL,1676232667
271,pareora,-44.4871,171.2132,15.66,93,6,4.2,NZ,1676232669
272,deputatskiy,69.3,139.9,-39.3,100,93,0.98,RU,1676232562
273,bairiki,1.3292,172.9752,26.0,94,100,8.75,KI,1676232670
274,bocas del toro,9.3333,-82.25,26.03,78,84,5.69,PA,1676232671
275,necochea,-38.5473,-58.7368,23.79,61,87,5.68,AR,1676232672
276,san carlos,9.6612,-68.5827,35.37,27,63,2.18,VE,1676232673
277,bull savanna,17.8868,-77.5902,26.99,54,0,6.09,JM,1676232674
278,lorengau,-2.0226,147.2712,27.3,81,100,3.48,PG,1676232675
279,walvis bay,-22.9575,14.5053,19.68,78,0,5.19,NA,1676232676
280,sisimiut,66.9395,-53.6735,-27.12,90,12,2.88,GL,1676232678
281,port hardy,50.6996,-127.4199,6.56,93,100,6.22,CA,1676232616
282,maturin,9.75,-63.1767,28.73,56,90,5.31,VE,1676232259
283,san patricio,28.017,-97.5169,19.53,34,100,3.41,US,1676232682
284,yulara,-25.2406,130.9889,27.69,25,18,5.16,AU,1676232683
285,cotonou,6.3654,2.4183,28.07,82,7,4.9,BJ,1676232684
286,phalaborwa,-23.943,31.1411,23.8,86,100,2.91,ZA,1676232685
287,ilheus,-14.7889,-39.0494,27.96,69,1,3.22,BR,1676232686
288,kununurra,-15.7667,128.7333,24.99,94,40,2.06,AU,1676232687
289,pangai,-19.8,-174.35,26.88,83,100,5.69,TO,1676232687
290,havre-saint-pierre,50.2334,-63.5986,-5.8,79,20,8.75,CA,1676232521
291,lebu,-37.6167,-73.65,18.65,69,56,4.46,CL,1676232689
292,tombouctou,20.0,-3.0,27.68,12,100,5.0,ML,1676232690
293,buraydah,26.326,43.975,15.52,29,100,6.66,SA,1676232691
294,dingle,10.9995,122.6711,22.52,94,58,3.31,PH,1676232692
295,jalu,29.0331,21.5482,12.08,46,39,3.88,LY,1676232584
296,lazaro cardenas,17.9583,-102.2,29.49,48,0,5.32,MX,1676232693
297,atalaia,-9.5019,-36.0228,28.28,67,97,5.23,BR,1676232694
298,namibe,-15.1961,12.1522,22.85,74,16,5.21,AO,1676232695
299,kahului,20.8947,-156.47,24.36,81,40,7.72,US,1676232592
300,maralal,1.0968,36.698,15.34,47,1,3.12,KE,1676232697
301,magalia,39.8121,-121.5783,16.75,36,9,1.36,US,1676232698
302,maraa,-1.8333,-65.3667,27.71,85,82,0.84,BR,1676232698
303,port macquarie,-31.4333,152.9167,19.38,91,38,4.42,AU,1676232699
304,zamora,-4.0692,-78.9567,28.58,87,59,1.5,EC,1676232081
305,santiago del estero,-27.7951,-64.2615,42.07,18,0,6.74,AR,1676232696
306,dubbo,-32.25,148.6167,16.07,82,100,4.12,AU,1676232597
307,sept-iles,50.2001,-66.3821,-1.08,59,71,3.58,CA,1676232702
308,salalah,17.0151,54.0924,22.05,56,0,1.54,OM,1676232702
309,springbok,-29.6643,17.8865,19.24,50,0,1.81,ZA,1676232703
310,ayr,55.4627,-4.6339,8.06,76,75,2.06,GB,1676232704
311,port moresby,-9.4431,147.1797,25.41,72,100,2.2,PG,1676232705
312,leshan,29.5623,103.7639,9.27,75,100,2.86,CN,1676232706
313,khani,41.9563,42.9566,-1.24,91,99,1.11,GE,1676232472
314,balkanabat,39.5108,54.3671,4.1,44,98,2.24,TM,1676232708
315,ulaangom,49.9811,92.0667,-21.22,99,100,0.37,MN,1676232709
316,cabo san lucas,22.8909,-109.9124,29.61,22,75,6.69,MX,1676232483
317,santa isabel do rio negro,-0.4139,-65.0192,27.78,86,99,1.03,BR,1676232640
318,tatishchevo,51.6703,45.5953,-3.75,96,100,4.19,RU,1676232711
319,killarney,52.05,-9.5167,7.84,76,85,4.45,IE,1676232712
320,novikovo,51.1537,37.8879,-6.08,87,100,8.51,RU,1676232713
321,krasnoarmeysk,51.0239,45.6969,-3.11,95,100,5.19,RU,1676232714
322,gigmoto,13.7796,124.39,25.06,85,58,4.62,PH,1676232715
323,alta floresta,-9.8756,-56.0861,28.74,76,38,0.68,BR,1676232716
324,novobelokatay,55.7062,58.9549,-13.51,96,100,1.82,RU,1676232717
325,porto novo,6.4965,2.6036,27.81,80,8,3.68,BJ,1676232718
326,beringovskiy,63.05,179.3167,-33.28,93,26,2.93,RU,1676232719
327,leningradskiy,69.3833,178.4167,-26.86,94,100,4.98,RU,1676232720
328,ontario,34.0633,-117.6509,15.78,58,75,3.6,US,1676232720
329,asyut,27.181,31.1837,12.21,42,56,3.88,EG,1676232721
330,gizo,-8.103,156.8419,27.77,76,100,2.62,SB,1676232722
331,serebryansk,49.6925,83.2892,-16.46,97,66,1.58,KZ,1676232723
332,petropavl,54.8753,69.1628,-24.29,100,85,2.1,KZ,1676232724
333,huron,41.1501,-82.5499,11.69,37,10,2.3,US,1676232579
334,jamsa,61.8642,25.19,3.4,83,100,6.47,FI,1676232726
335,broome,42.2506,-75.833,9.38,34,0,0.45,US,1676232727
336,kloulklubed,7.0419,134.2556,25.28,79,79,6.61,PW,1676232728
337,cherskiy,68.75,161.3,-42.12,100,89,1.4,RU,1676232476
338,gujranwala,32.1617,74.1883,9.03,36,0,3.49,PK,1676232730
339,kavieng,-2.5744,150.7967,26.93,77,100,1.21,PG,1676232637
340,roald,62.5833,6.1333,9.63,87,75,11.83,NO,1676232733
341,saint-georges,12.0564,-61.7485,25.19,76,39,8.48,GD,1676232567
342,sapa,5.1544,120.3241,25.71,83,99,2.63,PH,1676232735
343,tambura,5.6,27.4667,28.33,25,29,2.23,SS,1676232736
344,burnie,-41.0667,145.9167,11.08,72,2,3.67,AU,1676232737
345,san luis,-33.295,-66.3356,37.55,21,0,8.05,AR,1676232523
346,alghero,40.5589,8.3181,5.05,100,0,1.54,IT,1676232740
347,henties bay,-22.116,14.2845,19.25,83,0,3.66,NA,1676232741
348,kashi,39.4547,75.9797,-1.91,51,1,1.86,CN,1676232742
349,batemans bay,-35.7167,150.1833,18.39,85,100,3.07,AU,1676232658
350,shingu,33.7333,135.9833,10.34,92,100,0.94,JP,1676232746
351,lucea,18.451,-78.1736,27.7,64,1,4.12,JM,1676232748
352,mackenzie,55.2999,-123.1698,1.12,93,100,8.23,CA,1676232611
353,toritama,-8.0067,-36.0567,29.48,51,100,6.24,BR,1676232750
354,aykhal,66.0,111.5,-28.74,100,45,2.43,RU,1676232750
355,russell,32.3502,-85.1999,8.0,76,100,7.72,US,1676232752
356,prince rupert,54.3161,-130.3201,7.05,93,100,4.63,CA,1676232595
357,ambilobe,-13.2,49.05,23.35,93,96,0.71,MG,1676232753
358,kiama,-34.6833,150.8667,19.1,92,100,0.89,AU,1676232751
359,mananara,-16.1667,49.7667,23.15,93,12,2.13,MG,1676232756
360,mezen,65.8522,44.24,-10.26,94,100,4.85,RU,1676232757
361,odweyne,9.4092,45.064,19.59,56,0,2.02,SO,1676232757
362,matara,5.9485,80.5353,24.49,84,74,2.2,LK,1676232563
363,shimoda,34.6667,138.95,10.61,86,100,4.14,JP,1676232573
364,bucerias,20.75,-105.3333,27.99,51,40,4.12,MX,1676232759
365,aklavik,68.2191,-135.0107,-32.37,96,100,0.12,CA,1676232659
366,mawlaik,23.6333,94.4167,15.51,56,0,0.55,MM,1676232761
367,budogoshch,59.2816,32.4707,-2.21,96,100,5.29,RU,1676232762
368,khandbari,27.3747,87.2039,10.59,56,3,1.82,NP,1676232763
369,ixtapa,20.7,-105.2,27.57,51,40,4.12,MX,1676232764
370,hanzhong,33.0728,107.0303,5.12,93,100,0.98,CN,1676232765
371,esna,25.2934,32.554,16.66,24,100,7.48,EG,1676232766
372,manaure,11.7751,-72.4445,30.51,50,2,9.58,CO,1676232767
373,mahajanga,-15.7167,46.3167,24.64,82,100,2.61,MG,1676232768
374,marystown,47.1666,-55.1483,-2.85,86,100,8.93,CA,1676232769
375,tongchuan,35.0806,109.0897,2.59,99,100,1.44,CN,1676232769
376,leibnitz,46.7816,15.5384,3.37,67,33,0.45,AT,1676232770
377,matui,-4.8,38.25,19.72,84,100,1.71,TZ,1676232771
378,mogzon,51.7435,111.9606,-19.48,93,41,2.73,RU,1676232772
379,monteagudo,-19.8167,-63.9833,29.71,45,84,1.75,BO,1676232773
380,riacho de santana,-13.6092,-42.9389,30.46,44,22,3.43,BR,1676232774
381,la palma,33.8464,-118.0467,17.1,57,20,4.12,US,1676232775
382,hasaki,35.7333,140.8333,9.01,92,100,3.5,JP,1676232776
383,talaya,61.3833,152.75,-30.84,100,100,0.67,RU,1676232777
384,olafsvik,64.8945,-23.7142,4.13,96,100,10.64,IS,1676232777
385,sao borja,-28.6606,-56.0044,39.41,13,0,3.48,BR,1676232695
386,emba,48.8264,58.1442,-12.51,94,100,2.77,KZ,1676232778
387,rio gallegos,-51.6226,-69.2181,15.75,27,100,7.59,AR,1676232777
388,kalmar,56.6616,16.3616,4.96,93,0,3.6,SE,1676232779
389,harper,4.375,-7.7169,26.66,84,5,2.65,LR,1676232780
390,zhigansk,66.7697,123.3711,-40.05,97,24,4.19,RU,1676232781
391,nenjiang,49.1833,125.2167,-26.68,100,74,0.42,CN,1676232782
392,tura,25.5198,90.2201,15.45,44,0,0.55,IN,1676232783
393,taicheng,38.731,113.228,-6.79,86,93,2.21,CN,1676232784
394,zheleznodorozhnyy,55.7503,38.0042,-5.9,98,41,1.86,RU,1676232786
395,ribas do rio pardo,-20.4431,-53.7592,24.36,86,100,3.59,BR,1676232788
396,nome,64.5011,-165.4064,-20.96,77,100,7.72,US,1676232789
397,kerema,-7.9631,145.7785,24.39,90,100,2.73,PG,1676232790
398,codrington,-38.2667,141.9667,15.07,58,99,4.83,AU,1676232792
399,boden,65.8252,21.6886,3.0,65,98,7.77,SE,1676232793
400,turayf,31.6725,38.6637,6.91,50,4,1.89,SA,1676232794
401,flinders,-34.5833,150.8552,18.99,89,100,0.89,AU,1676232796
402,joinville,-26.3044,-48.8456,30.61,65,28,2.86,BR,1676232704
403,paita,-5.0892,-81.1144,27.81,63,29,6.66,PE,1676232798
404,karratha,-20.7377,116.8463,29.86,67,67,6.03,AU,1676232799
405,balestrand,61.2076,6.5334,7.21,98,100,2.52,NO,1676232800
406,tessalit,20.1986,1.0114,26.14,16,79,5.22,ML,1676232571
407,luangwa,-15.6167,30.4167,23.21,94,100,1.43,ZM,1676232550
408,kodinsk,58.6881,99.1844,-26.05,100,85,1.2,RU,1676232802
409,tucupita,9.0622,-62.051,27.96,65,86,3.44,VE,1676232803
410,coihaique,-45.5752,-72.0662,14.97,41,40,4.12,CL,1676232804
411,fairbanks,64.8378,-147.7164,-17.73,81,100,0.0,US,1676232806
412,tommot,58.9564,126.2925,-14.26,90,100,4.69,RU,1676232807
413,merauke,-8.4667,140.3333,25.44,90,100,5.89,ID,1676232808
414,novyy urgal,51.0736,132.5642,-31.84,100,93,0.76,RU,1676232809
415,gondar,12.6,37.4667,18.44,33,4,2.21,ET,1676232810
416,kashary,49.04,41.0056,-6.61,92,72,5.62,RU,1676232811
417,morehead,37.2711,-87.1764,12.77,31,0,4.12,US,1676232812
418,gat,31.61,34.7642,10.22,79,51,1.0,IL,1676232813
419,paris,48.8534,2.3488,6.73,87,0,4.63,FR,1676232149
420,baruun-urt,46.6806,113.2792,-20.29,92,5,2.43,MN,1676232815
421,novaya igirma,57.1334,103.9112,-24.97,99,36,1.36,RU,1676232815
422,namatanai,-3.6667,152.4333,26.25,83,100,1.68,PG,1676232816
423,laizhou,37.1717,119.9214,-0.61,61,100,10.06,CN,1676232817
424,klyuchi,52.2667,79.1667,-23.39,100,71,2.61,RU,1676232817
425,cayenne,4.9333,-52.3333,27.02,83,100,4.63,GF,1676232818
426,halifax,44.6453,-63.5724,6.79,54,39,6.17,CA,1676232819
427,saurimo,-9.6608,20.3916,18.36,96,98,1.3,AO,1676232820
428,grants,35.1473,-107.8514,13.13,19,0,3.6,US,1676232786
429,rondonopolis,-16.4708,-54.6356,30.37,62,45,1.28,BR,1676232821
430,seymchan,62.8833,152.4333,-32.06,98,99,0.59,RU,1676232733
431,muyezerskiy,63.9333,31.65,1.85,88,100,6.97,RU,1676232822
432,sola,-13.8833,167.55,28.07,77,100,7.83,VU,1676232823
433,acapulco,16.8634,-99.8901,29.9,66,0,3.6,MX,1676232569
434,malmyzh,56.5205,50.6818,-7.29,95,100,5.04,RU,1676232824
435,jieshi,22.8134,115.8257,19.69,95,82,1.42,CN,1676232825
436,am timan,11.0297,20.2827,30.03,14,4,2.29,TD,1676232825
437,tual,-5.6667,132.75,28.15,79,100,8.92,ID,1676232534
438,maceio,-9.6658,-35.7353,28.69,69,40,5.14,BR,1676232827
439,bella union,-30.2752,-57.6007,41.19,10,0,5.24,UY,1676232827
440,nishihara,26.1842,127.7558,21.6,94,75,6.69,JP,1676232828
441,nedryhayliv,50.834,33.8763,-5.64,87,23,6.35,UA,1676232829
442,chipinge,-20.1883,32.6236,18.69,98,100,2.41,ZW,1676232830
443,yarada,17.65,83.2667,24.18,100,0,1.03,IN,1676232830
444,lloydminster,53.2835,-110.0016,-0.43,82,100,4.66,CA,1676232755
445,wiwili,13.6268,-85.8254,30.13,40,41,7.93,NI,1676232832
446,portland,45.5234,-122.6762,11.69,81,100,0.89,US,1676232571
447,srednekolymsk,67.45,153.6833,-36.88,100,100,0.54,RU,1676232834
448,mollendo,-17.0231,-72.0147,25.05,74,36,3.36,PE,1676232836
449,sao filipe,14.8961,-24.4956,21.61,78,100,2.88,CV,1676232553
450,mitsamiouli,-11.3847,43.2844,26.75,77,100,1.17,KM,1676232838
451,killybegs,54.6333,-8.45,7.84,78,79,5.48,IE,1676232839
452,norman wells,65.282,-126.8329,-23.98,70,75,1.54,CA,1676232837
453,khandyga,62.6667,135.6,-41.86,99,80,0.99,RU,1676232840
454,vanimo,-2.6741,141.3028,24.91,91,98,3.08,PG,1676232841
455,hamilton,39.1834,-84.5333,13.51,21,0,5.14,US,1676232608
456,moree,-29.4667,149.85,20.07,38,0,3.24,AU,1676232843
457,watsa,3.0372,29.5355,23.12,30,10,1.0,CD,1676232844
458,komsomolskiy,40.4272,71.7189,-2.6,86,87,2.06,UZ,1676232845
459,saint anthony,45.0205,-93.218,4.97,61,0,3.6,US,1676232846
460,tezu,27.9167,96.1667,15.3,78,100,1.85,IN,1676232847
461,pozoblanco,38.3791,-4.8483,5.97,78,35,1.01,ES,1676232848
462,hanna,51.6334,-111.9018,-1.75,73,66,4.02,CA,1676232401
463,muros,42.7762,-9.0603,10.61,67,100,1.87,ES,1676232838
464,bangarmau,26.9,80.2167,12.62,32,0,4.46,IN,1676232850
465,petropavlovsk-kamchatskiy,53.0452,158.6483,-20.67,65,0,5.0,RU,1676232792
466,cadereyta,25.5833,-99.9833,19.82,22,61,4.65,MX,1676232851
467,ternate,0.8,127.4,26.69,82,100,3.78,ID,1676232852
468,gashua,12.871,11.0482,23.49,18,0,4.47,NG,1676232853
469,buluang,13.3068,123.3425,22.09,95,34,1.32,PH,1676232855
470,luderitz,-26.6481,15.1594,17.87,90,0,2.33,NA,1676232751
471,lasa,46.6166,10.7002,6.49,75,14,0.87,IT,1676232857
472,kiboga,0.9161,31.7742,19.65,48,43,0.89,UG,1676232858
473,juneau,58.3019,-134.4197,4.56,97,100,4.63,US,1676232859
474,tendukheda,23.4,79.55,15.38,28,0,2.35,IN,1676232861
475,shache,38.4167,77.2406,2.06,50,0,1.59,CN,1676232863
476,coquimbo,-29.9533,-71.3436,21.85,68,0,5.66,CL,1676232864
477,manokwari,-0.8667,134.0833,25.44,81,100,2.53,ID,1676232865
478,vasteras,59.6162,16.5528,2.14,86,100,2.06,SE,1676232866
479,moerai,-22.4333,-151.3333,26.71,74,99,2.61,PF,1676232867
480,mazyr,52.0495,29.2456,-4.67,91,88,3.5,BY,1676232869
481,ormoz,46.4114,16.1544,3.57,86,84,0.72,SI,1676232869
482,puerto narino,-3.7703,-70.3831,28.54,81,64,1.4,CO,1676232870
483,san felipe,10.3399,-68.7425,25.31,80,50,3.97,VE,1676232871
484,meulaboh,4.1363,96.1285,24.4,89,100,2.43,ID,1676232770
485,sinnamary,5.3833,-52.95,25.55,88,86,5.46,GF,1676232875
486,aripuana,-9.1667,-60.6333,30.01,62,32,0.4,BR,1676232877
487,saint george,37.1041,-113.5841,14.68,28,0,1.79,US,1676232817
488,nzerekore,7.7562,-8.8179,25.05,61,38,0.74,GN,1676232878
489,dakar,14.6937,-17.4441,21.49,88,0,4.12,SN,1676232359
490,atyashevo,54.5644,46.0691,-7.16,97,100,1.63,RU,1676232880
491,santa luzia,-19.7697,-43.8514,25.6,67,40,5.66,BR,1676232883
492,niagara falls,43.1001,-79.0663,8.91,44,0,4.12,CA,1676232887
493,nadvoitsy,63.8667,34.3167,-1.54,96,100,5.37,RU,1676232888
494,lalmohan,22.3384,90.7419,21.9,89,0,3.12,BD,1676232890
495,buchanan,5.8808,-10.0467,26.11,87,25,3.4,LR,1676232891
496,papetoai,-17.4961,-149.8729,29.77,76,97,5.03,PF,1676232892
497,berdigestyakh,62.0989,126.6992,-29.98,97,100,2.86,RU,1676232830
498,yar-sale,66.8333,70.8333,-12.12,93,81,8.22,RU,1676232893
499,waycross,31.2136,-82.354,12.21,70,100,5.14,US,1676232894
500,umm kaddadah,13.6017,26.6876,20.89,17,1,6.69,SD,1676232895
501,barentu,15.1139,37.5928,23.02,58,0,2.88,ER,1676232896
502,camargo,27.6667,-105.1667,19.51,14,100,4.09,MX,1676232896
503,kisangani,0.5167,25.2,27.15,39,100,1.41,CD,1676232897
504,waingapu,-9.6567,120.2641,25.13,87,100,2.95,ID,1676232898
505,cabadiangan,9.7531,122.4739,23.83,89,54,2.97,PH,1676232898
506,college,64.8569,-147.8028,-17.18,79,100,0.0,US,1676232900
507,wellington,-41.2866,174.7756,18.92,70,75,2.57,NZ,1676232846
508,kurilsk,45.2333,147.8833,-6.01,77,71,5.43,RU,1676232744
509,bambanglipuro,-7.95,110.2833,23.41,93,100,1.49,ID,1676232902
510,port shepstone,-30.7414,30.455,25.05,88,100,3.16,ZA,1676232903
511,sarangani,5.4033,125.4636,26.78,75,100,0.57,PH,1676232904
512,nioro,13.35,-15.75,31.62,21,100,3.97,GM,1676232906
513,vilhena,-12.7406,-60.1458,31.12,51,40,3.6,BR,1676232907
514,elizabeth city,36.2946,-76.2511,13.01,99,100,5.66,US,1676232909
515,yuncheng,35.0231,110.9928,3.84,97,100,1.02,CN,1676232911
516,poum,-20.2333,164.0167,25.5,63,70,5.95,NC,1676232912
517,chumikan,54.7183,135.315,-22.81,93,98,6.28,RU,1676232742
518,buta,2.7858,24.73,28.39,32,100,0.18,CD,1676232916
519,champerico,14.3,-91.9167,35.3,60,0,4.95,GT,1676232917
520,salaga,8.5508,-0.5188,33.62,9,4,2.06,GH,1676232919
521,victoria falls,-17.9235,25.843,23.26,54,69,1.96,ZW,1676232922
522,westport,41.1415,-73.3579,9.13,42,0,0.0,US,1676232711
523,rawson,-43.3002,-65.1023,19.0,56,92,7.85,AR,1676232925
524,waipawa,-41.4122,175.5153,15.66,79,99,6.14,NZ,1676232926
525,luklukan,14.3254,122.7124,23.57,92,83,3.71,PH,1676232927
526,zaraza,9.3503,-65.3245,30.38,46,99,5.04,VE,1676232928
527,zhuanghe,39.7008,122.9911,-2.57,48,65,5.57,CN,1676232929
528,kalaleh,37.3807,55.4916,2.2,77,100,0.8,IR,1676232930
529,felanitx,39.4696,3.1483,9.29,77,0,1.36,ES,1676232931
530,madang,-5.2246,145.7966,23.89,96,100,1.08,PG,1676232934
531,muskogee,35.5834,-95.3336,17.04,32,0,7.2,US,1676232935
532,zhaozhou,45.6833,125.3167,-16.79,94,18,2.82,CN,1676232936
533,tabou,4.423,-7.3528,26.78,84,6,2.68,CI,1676232938
534,nouadhibou,20.931,-17.0347,17.99,88,100,6.17,MR,1676232939
535,haines junction,60.7522,-137.5108,-5.03,80,100,0.0,CA,1676232939
536,sete,43.4018,3.6966,5.92,69,0,0.54,FR,1676232940
537,wasilla,61.5814,-149.4394,-2.47,93,100,2.57,US,1676232941
538,marawi,7.9986,124.2928,19.23,96,100,0.23,PH,1676232941
539,mogadishu,2.0371,45.3438,24.85,85,0,10.15,SO,1676232943
540,kalmunai,7.4167,81.8167,22.58,82,82,2.57,LK,1676232943
541,baykit,61.67,96.37,-26.73,100,92,0.69,RU,1676232944
542,buala,-8.145,159.5921,26.93,81,100,2.38,SB,1676232945
543,dabakala,8.3667,-4.4333,31.55,24,0,0.66,CI,1676232946
544,ruwi,23.5996,58.5507,21.83,63,0,2.78,OM,1676232948
545,negombo,7.2083,79.8358,24.03,83,0,3.6,LK,1676232949
546,marsa matruh,31.3525,27.2453,13.27,54,100,4.52,EG,1676232952
547,yarega,63.4354,53.5765,-18.41,100,100,1.53,RU,1676232953
548,pocola,35.2312,-94.478,16.77,39,0,1.54,US,1676232954
549,lincoln,40.8,-96.667,11.67,44,0,4.63,US,1676232858
550,canutama,-6.5339,-64.3831,28.52,85,92,0.31,BR,1676232956
551,eureka,40.8021,-124.1637,13.44,73,6,2.24,US,1676232957
552,la asuncion,11.0333,-63.8628,25.35,77,96,8.61,VE,1676232958
553,mareeba,-17.0,145.4333,22.47,90,100,0.98,AU,1676232958
554,owando,-0.4819,15.8999,27.31,38,100,1.78,CG,1676232960
555,wilmington,34.2257,-77.9447,16.11,68,100,5.14,US,1676232936
556,coahuayana,18.7333,-103.6833,32.68,31,0,3.83,MX,1676232966
557,nizhniy kuranakh,58.8353,125.4869,-14.64,92,100,4.64,RU,1676232739
558,simao,22.7886,100.9748,10.87,46,0,0.4,CN,1676232968
559,caloundra,-26.8,153.1333,23.27,94,11,3.31,AU,1676232969
560,keti bandar,24.1447,67.4497,22.29,26,0,4.54,PK,1676232970
561,juba,4.8517,31.5825,28.92,20,2,2.39,SS,1676232971
562,sovetskiy,61.3614,63.5842,-8.43,96,100,3.62,RU,1676232973
563,maracaju,-21.6144,-55.1683,24.7,78,96,2.36,BR,1676232974
564,montrose,38.4166,-108.2673,3.03,54,93,0.56,US,1676232976
565,yarmouth,41.7057,-70.2286,8.31,67,0,4.12,US,1676232779
566,veracruz,19.3333,-96.6667,22.33,47,73,3.28,MX,1676232931
567,kaura namoda,12.5898,6.5779,24.81,13,0,4.47,NG,1676232981
568,viedma,-40.8135,-62.9967,32.53,20,1,1.01,AR,1676232982
569,kungurtug,50.5994,97.5228,-25.33,93,32,1.03,RU,1676232811
570,kutum,14.2,24.6667,18.99,19,0,4.3,SD,1676232986
